{
  "courts": [
    {
      "name": "Iowa City West High Tennis Courts",
      "address": "2901 Melrose Ave",
      "city": "Iowa City",
      "state": "IA",
      "zipCode": "52246",
      "location": {
        "type": "Point",
        "coordinates": [-91.5832, 41.6611]
      },
      "amenities": {
        "outdoorCourts": true,
        "lightsAvailable": true,
        "restroomsAvailable": true,
        "waterFountain": true
      },
      "numberOfCourts": 12,
      "surfaceType": "Hard",
      "cost": "Public courts, free",
      "hours": {
        "monday": "Dawn to Dusk",
        "tuesday": "Dawn to Dusk",
        "wednesday": "Dawn to Dusk",
        "thursday": "Dawn to Dusk",
        "friday": "Dawn to Dusk",
        "saturday": "Dawn to Dusk",
        "sunday": "Dawn to Dusk"
      },
      "isVerified": true,
      "addedByUser": false,
      "lastVerified": 1710864000000,
      "rating": 4.6,
      "indoor": false,
      "contact": {
        "website": "https://www.iowacityschools.org/westhigh",
        "phone": "(319) 688-1050"
      },
      "createdAt": 1710864000000,
      "updatedAt": 1710864000000,
      "source": "seed-data"
    },
    {
      "name": "Des Moines Golf and Country Club Tennis",
      "address": "1600 Jordan Creek Pkwy",
      "city": "West Des Moines",
      "state": "IA",
      "zipCode": "50266",
      "location": {
        "type": "Point",
        "coordinates": [-93.8256, 41.5772]
      },
      "amenities": {
        "indoorCourts": true,
        "outdoorCourts": true,
        "lightsAvailable": true,
        "restroomsAvailable": true,
        "waterFountain": true
      },
      "numberOfCourts": 10,
      "surfaceType": "Hard",
      "cost": "Private club membership required",
      "hours": {
        "monday": "6:00 AM - 10:00 PM",
        "tuesday": "6:00 AM - 10:00 PM",
        "wednesday": "6:00 AM - 10:00 PM",
        "thursday": "6:00 AM - 10:00 PM",
        "friday": "6:00 AM - 10:00 PM",
        "saturday": "6:00 AM - 10:00 PM",
        "sunday": "6:00 AM - 10:00 PM"
      },
      "isVerified": true,
      "addedByUser": false,
      "lastVerified": 1710864000000,
      "rating": 4.7,
      "indoor": true,
      "contact": {
        "website": "https://www.dmgcc.org/tennis",
        "phone": "(515) 225-1800"
      },
      "createdAt": 1710864000000,
      "updatedAt": 1710864000000,
      "source": "seed-data"
    },
    {
      "name": "North Dodge Athletic Club Tennis",
      "address": "2400 North Dodge St",
      "city": "Iowa City",
      "state": "IA",
      "zipCode": "52245",
      "location": {
        "type": "Point",
        "coordinates": [-91.5302, 41.6877]
      },
      "amenities": {
        "indoorCourts": true,
        "outdoorCourts": true,
        "lightsAvailable": true,
        "restroomsAvailable": true,
        "waterFountain": true
      },
      "numberOfCourts": 8,
      "surfaceType": "Hard",
      "cost": "Membership required",
      "hours": {
        "monday": "6:00 AM - 10:00 PM",
        "tuesday": "6:00 AM - 10:00 PM",
        "wednesday": "6:00 AM - 10:00 PM",
        "thursday": "6:00 AM - 10:00 PM",
        "friday": "6:00 AM - 10:00 PM",
        "saturday": "6:00 AM - 10:00 PM",
        "sunday": "6:00 AM - 10:00 PM"
      },
      "isVerified": true,
      "addedByUser": false,
      "lastVerified": 1710864000000,
      "rating": 4.5,
      "indoor": true,
      "contact": {
        "website": "https://www.northdodge.com/tennis/",
        "phone": "(319) 351-5683"
      },
      "createdAt": 1710864000000,
      "updatedAt": 1710864000000,
      "source": "seed-data"
    },
    {
      "name": "Ames High School Tennis Courts",
      "address": "1921 Ames High Dr",
      "city": "Ames",
      "state": "IA",
      "zipCode": "50010",
      "location": {
        "type": "Point",
        "coordinates": [-93.6501, 42.0347]
      },
      "amenities": {
        "outdoorCourts": true,
        "lightsAvailable": true,
        "restroomsAvailable": true,
        "waterFountain": true
      },
      "numberOfCourts": 8,
      "surfaceType": "Hard",
      "cost": "Public courts, free",
      "hours": {
        "monday": "Dawn to Dusk",
        "tuesday": "Dawn to Dusk",
        "wednesday": "Dawn to Dusk",
        "thursday": "Dawn to Dusk",
        "friday": "Dawn to Dusk",
        "saturday": "Dawn to Dusk",
        "sunday": "Dawn to Dusk"
      },
      "isVerified": true,
      "addedByUser": false,
      "lastVerified": 1710864000000,
      "rating": 4.4,
      "indoor": false,
      "contact": {
        "website": "https://www.ames.k12.ia.us/schools/ames-high/",
        "phone": "(515) 817-0600"
      },
      "createdAt": 1710864000000,
      "updatedAt": 1710864000000,
      "source": "seed-data"
    },
    {
      "name": "Cedar Rapids Tennis Club",
      "address": "500 Collins Rd NE",
      "city": "Cedar Rapids",
      "state": "IA",
      "zipCode": "52402",
      "location": {
        "type": "Point",
        "coordinates": [-91.6656, 42.0296]
      },
      "amenities": {
        "indoorCourts": true,
        "outdoorCourts": true,
        "lightsAvailable": true,
        "restroomsAvailable": true,
        "waterFountain": true
      },
      "numberOfCourts": 10,
      "surfaceType": "Hard",
      "cost": "Membership required",
      "hours": {
        "monday": "6:00 AM - 10:00 PM",
        "tuesday": "6:00 AM - 10:00 PM",
        "wednesday": "6:00 AM - 10:00 PM",
        "thursday": "6:00 AM - 10:00 PM",
        "friday": "6:00 AM - 10:00 PM",
        "saturday": "6:00 AM - 10:00 PM",
        "sunday": "6:00 AM - 10:00 PM"
      },
      "isVerified": true,
      "addedByUser": false,
      "lastVerified": 1710864000000,
      "rating": 4.6,
      "indoor": true,
      "contact": {
        "website": "https://www.crtennis.com",
        "phone": "(319) 393-2881"
      },
      "createdAt": 1710864000000,
      "updatedAt": 1710864000000,
      "source": "seed-data"
    }
  ]
}
