{
  "courts": [
    {
      "name": "Dwight Davis Tennis Center",
      "address": "5620 Grand Dr",
      "city": "St. Louis",
      "state": "MO",
      "zipCode": "63112",
      "location": {
        "type": "Point",
        "coordinates": [-90.2857, 38.6417]
      },
      "amenities": {
        "indoorCourts": true,
        "outdoorCourts": true,
        "lightsAvailable": true,
        "restroomsAvailable": true,
        "waterFountain": true
      },
      "numberOfCourts": 20,
      "surfaceType": "Hard",
      "cost": "Public courts with hourly rates",
      "hours": {
        "monday": "6:00 AM - 10:00 PM",
        "tuesday": "6:00 AM - 10:00 PM",
        "wednesday": "6:00 AM - 10:00 PM",
        "thursday": "6:00 AM - 10:00 PM",
        "friday": "6:00 AM - 10:00 PM",
        "saturday": "6:00 AM - 10:00 PM",
        "sunday": "6:00 AM - 10:00 PM"
      },
      "isVerified": true,
      "addedByUser": false,
      "lastVerified": 1710864000000,
      "rating": 4.8,
      "indoor": true,
      "contact": {
        "website": "https://www.stlouis-mo.gov/parks/facilities/tennis/dwight-davis-tennis-center.cfm",
        "phone": "(314) 367-0220"
      },
      "createdAt": 1710864000000,
      "updatedAt": 1710864000000,
      "source": "seed-data"
    },
    {
      "name": "Plaza Tennis Center",
      "address": "4747 JC Nichols Pkwy",
      "city": "Kansas City",
      "state": "MO",
      "zipCode": "64112",
      "location": {
        "type": "Point",
        "coordinates": [-94.5907, 39.0417]
      },
      "amenities": {
        "indoorCourts": true,
        "outdoorCourts": true,
        "lightsAvailable": true,
        "restroomsAvailable": true,
        "waterFountain": true
      },
      "numberOfCourts": 16,
      "surfaceType": "Hard",
      "cost": "Public courts with hourly rates",
      "hours": {
        "monday": "7:00 AM - 10:00 PM",
        "tuesday": "7:00 AM - 10:00 PM",
        "wednesday": "7:00 AM - 10:00 PM",
        "thursday": "7:00 AM - 10:00 PM",
        "friday": "7:00 AM - 10:00 PM",
        "saturday": "7:00 AM - 10:00 PM",
        "sunday": "7:00 AM - 10:00 PM"
      },
      "isVerified": true,
      "addedByUser": false,
      "lastVerified": 1710864000000,
      "rating": 4.7,
      "indoor": true,
      "contact": {
        "website": "https://www.plazatenniscenter.com",
        "phone": "(816) 753-5200"
      },
      "createdAt": 1710864000000,
      "updatedAt": 1710864000000,
      "source": "seed-data"
    },
    {
      "name": "Cooper Tennis Complex",
      "address": "2331 E Pythian St",
      "city": "Springfield",
      "state": "MO",
      "zipCode": "65802",
      "location": {
        "type": "Point",
        "coordinates": [-93.2817, 37.2089]
      },
      "amenities": {
        "indoorCourts": true,
        "outdoorCourts": true,
        "lightsAvailable": true,
        "restroomsAvailable": true,
        "waterFountain": true
      },
      "numberOfCourts": 12,
      "surfaceType": "Hard",
      "cost": "Public courts with hourly rates",
      "hours": {
        "monday": "7:00 AM - 10:00 PM",
        "tuesday": "7:00 AM - 10:00 PM",
        "wednesday": "7:00 AM - 10:00 PM",
        "thursday": "7:00 AM - 10:00 PM",
        "friday": "7:00 AM - 10:00 PM",
        "saturday": "7:00 AM - 10:00 PM",
        "sunday": "7:00 AM - 10:00 PM"
      },
      "isVerified": true,
      "addedByUser": false,
      "lastVerified": 1710864000000,
      "rating": 4.6,
      "indoor": true,
      "contact": {
        "website": "https://www.springfieldmo.gov/cooper",
        "phone": "(417) 837-5800"
      },
      "createdAt": 1710864000000,
      "updatedAt": 1710864000000,
      "source": "seed-data"
    },
    {
      "name": "Columbia Tennis Center",
      "address": "1701 W Ash St",
      "city": "Columbia",
      "state": "MO",
      "zipCode": "65203",
      "location": {
        "type": "Point",
        "coordinates": [-92.3439, 38.9517]
      },
      "amenities": {
        "indoorCourts": true,
        "outdoorCourts": true,
        "lightsAvailable": true,
        "restroomsAvailable": true,
        "waterFountain": true
      },
      "numberOfCourts": 10,
      "surfaceType": "Hard",
      "cost": "Public courts with hourly rates",
      "hours": {
        "monday": "7:00 AM - 10:00 PM",
        "tuesday": "7:00 AM - 10:00 PM",
        "wednesday": "7:00 AM - 10:00 PM",
        "thursday": "7:00 AM - 10:00 PM",
        "friday": "7:00 AM - 10:00 PM",
        "saturday": "7:00 AM - 10:00 PM",
        "sunday": "7:00 AM - 10:00 PM"
      },
      "isVerified": true,
      "addedByUser": false,
      "lastVerified": 1710864000000,
      "rating": 4.5,
      "indoor": true,
      "contact": {
        "website": "https://www.comoparksandrec.com/facilities/tennis-center",
        "phone": "(573) 874-7700"
      },
      "createdAt": 1710864000000,
      "updatedAt": 1710864000000,
      "source": "seed-data"
    },
    {
      "name": "Forest Lake Tennis Club",
      "address": "5600 NE 76th St",
      "city": "Kansas City",
      "state": "MO",
      "zipCode": "64119",
      "location": {
        "type": "Point",
        "coordinates": [-94.5339, 39.1833]
      },
      "amenities": {
        "outdoorCourts": true,
        "lightsAvailable": true,
        "restroomsAvailable": true,
        "waterFountain": true
      },
      "numberOfCourts": 8,
      "surfaceType": "Hard",
      "cost": "Public courts, free",
      "hours": {
        "monday": "Dawn to Dusk",
        "tuesday": "Dawn to Dusk",
        "wednesday": "Dawn to Dusk",
        "thursday": "Dawn to Dusk",
        "friday": "Dawn to Dusk",
        "saturday": "Dawn to Dusk",
        "sunday": "Dawn to Dusk"
      },
      "isVerified": true,
      "addedByUser": false,
      "lastVerified": 1710864000000,
      "rating": 4.4,
      "indoor": false,
      "contact": {
        "website": "https://www.kcparks.org/facilities/forest-lake-tennis-courts",
        "phone": "(816) 513-7500"
      },
      "createdAt": 1710864000000,
      "updatedAt": 1710864000000,
      "source": "seed-data"
    }
  ]
}
